[
    {
        "season_name":"Survivor: Borneo",
        "season":1,
        "location":"Pulau Tiga, Sabah, Malaysia",
        "country":"Malaysia",
        "filming_started":"2000-03-13",
        "filming_ended":"2000-04-20",
        "latitude":5.7253104,
        "longitude":115.6539512
    },
    {
        "season_name":"Survivor: The Australian Outback",
        "season":2,
        "location":"Herbert River at Goshen Station, Queensland, Australia",
        "country":"Australia",
        "filming_started":"2000-10-23",
        "filming_ended":"2000-12-03",
        "latitude":-18.1462325,
        "longitude":145.438669
    },
    {
        "season_name":"Survivor: Africa",
        "season":3,
        "location":"Shaba National Reserve, Kenya",
        "country":"Kenya",
        "filming_started":"2001-07-11",
        "filming_ended":"2001-08-18",
        "latitude":0.6400635,
        "longitude":37.8300034
    },
    {
        "season_name":"Survivor: Marquesas",
        "season":4,
        "location":"Nuku Hiva, Marquesas Islands, French Polynesia",
        "country":"Polynesia",
        "filming_started":"2001-11-12",
        "filming_ended":"2001-12-20",
        "latitude":-8.9061701,
        "longitude":-140.1055311
    },
    {
        "season_name":"Survivor: Thailand",
        "season":5,
        "location":"Ko Tarutao, Satun Province, Thailand",
        "country":"Thailand",
        "filming_started":"2002-06-10",
        "filming_ended":"2002-07-18",
        "latitude":6.5913175,
        "longitude":99.6564092
    },
    {
        "season_name":"Survivor: The Amazon",
        "season":6,
        "location":"Rio Negro, Amazonas, Brazil",
        "country":"Brazil",
        "filming_started":"2002-11-07",
        "filming_ended":"2002-12-15",
        "latitude":-0.1871710015,
        "longitude":-64.7074304629
    },
    {
        "season_name":"Survivor: Pearl Islands",
        "season":7,
        "location":"Pearl Islands, Panama",
        "country":"Panama",
        "filming_started":"2003-06-23",
        "filming_ended":"2003-07-31",
        "latitude":8.4318812384,
        "longitude":-78.951237025
    },
    {
        "season_name":"Survivor: All-Stars",
        "season":8,
        "location":"Pearl Islands, Panama",
        "country":"Panama",
        "filming_started":"2003-11-03",
        "filming_ended":"2003-12-11",
        "latitude":8.4318812384,
        "longitude":-78.951237025
    },
    {
        "season_name":"Survivor: Vanuatu",
        "season":9,
        "location":"Efate, Shefa, Vanuatu",
        "country":"Vanuatu",
        "filming_started":"2004-06-28",
        "filming_ended":"2004-08-05",
        "latitude":-17.6577479,
        "longitude":168.4297187
    },
    {
        "season_name":"Survivor: Palau",
        "season":10,
        "location":"Koror, Palau",
        "country":"Palau",
        "filming_started":"2004-10-27",
        "filming_ended":"2004-12-04",
        "latitude":7.3375646,
        "longitude":134.4889469
    },
    {
        "season_name":"Survivor: Guatemala",
        "season":11,
        "location":"Laguna Yaxha, Yaxha-Nakum-Naranjo National Park, Peten, Guatemala",
        "country":"Guatemala",
        "filming_started":"2005-06-27",
        "filming_ended":"2005-08-04",
        "latitude":17.0619372,
        "longitude":-89.4056303
    },
    {
        "season_name":"Survivor: Panama",
        "season":12,
        "location":"Pearl Islands, Panama",
        "country":"Panama",
        "filming_started":"2005-10-31",
        "filming_ended":"2005-12-08",
        "latitude":8.4318812384,
        "longitude":-78.951237025
    },
    {
        "season_name":"Survivor: Cook Islands",
        "season":13,
        "location":"Aitutaki, Cook Islands",
        "country":"Islands",
        "filming_started":"2006-06-26",
        "filming_ended":"2006-08-03",
        "latitude":-18.8579523,
        "longitude":-159.7852843
    },
    {
        "season_name":"Survivor: Fiji",
        "season":14,
        "location":"Macuata, Vanua Levu, Fiji",
        "country":"Fiji",
        "filming_started":"2006-10-30",
        "filming_ended":"2006-12-07",
        "latitude":-16.4864922,
        "longitude":179.2847251
    },
    {
        "season_name":"Survivor: China",
        "season":15,
        "location":"Zhelin, Jiujiang, Jiangxi, China",
        "country":"China",
        "filming_started":"2007-06-25",
        "filming_ended":"2007-08-02",
        "latitude":29.205067,
        "longitude":115.515728
    },
    {
        "season_name":"Survivor: Micronesia",
        "season":16,
        "location":"Koror, Palau",
        "country":"Palau",
        "filming_started":"2007-10-29",
        "filming_ended":"2007-12-06",
        "latitude":7.3375646,
        "longitude":134.4889469
    },
    {
        "season_name":"Survivor: Gabon",
        "season":17,
        "location":"Wonga-Wongue Presidential Reserve, Estuaire, Gabon",
        "country":"Gabon",
        "filming_started":"2008-06-23",
        "filming_ended":"2008-07-31",
        "latitude":-0.5186382,
        "longitude":9.456155
    },
    {
        "season_name":"Survivor: Tocantins",
        "season":18,
        "location":"Jalapao, Tocantins, Brazil",
        "country":"Brazil",
        "filming_started":"2008-11-02",
        "filming_ended":"2008-12-10",
        "latitude":-10.2984889,
        "longitude":-46.7538882
    },
    {
        "season_name":"Survivor: Samoa",
        "season":19,
        "location":"Upolu, Samoa",
        "country":"Samoa",
        "filming_started":"2009-06-11",
        "filming_ended":"2009-07-19",
        "latitude":-13.9134084,
        "longitude":-171.734942
    },
    {
        "season_name":"Survivor: Heroes vs. Villains",
        "season":20,
        "location":"Upolu, Samoa",
        "country":"Samoa",
        "filming_started":"2009-08-09",
        "filming_ended":"2009-09-16",
        "latitude":-13.9134084,
        "longitude":-171.734942
    },
    {
        "season_name":"Survivor: Nicaragua",
        "season":21,
        "location":"San Juan del Sur, Rivas, Nicaragua",
        "country":"Nicaragua",
        "filming_started":"2010-06-14",
        "filming_ended":"2010-07-22",
        "latitude":11.263406,
        "longitude":-85.8639766
    },
    {
        "season_name":"Survivor: Redemption Island",
        "season":22,
        "location":"San Juan del Sur, Rivas, Nicaragua",
        "country":"Nicaragua",
        "filming_started":"2010-08-16",
        "filming_ended":"2010-09-23",
        "latitude":11.263406,
        "longitude":-85.8639766
    },
    {
        "season_name":"Survivor: South Pacific",
        "season":23,
        "location":"San Juan del Sur, Rivas, Nicaragua",
        "country":"Nicaragua",
        "filming_started":"2011-05-30",
        "filming_ended":"2011-07-07",
        "latitude":11.263406,
        "longitude":-85.8639766
    },
    {
        "season_name":"Survivor: One World",
        "season":24,
        "location":"San Juan del Sur, Rivas, Nicaragua",
        "country":"Nicaragua",
        "filming_started":"2011-08-01",
        "filming_ended":"2011-09-08",
        "latitude":11.263406,
        "longitude":-85.8639766
    },
    {
        "season_name":"Survivor: Philippines",
        "season":25,
        "location":"Caramoan, Camarines Sur, Philippines",
        "country":"Philippines",
        "filming_started":"2012-03-18",
        "filming_ended":"2012-04-25",
        "latitude":13.8076519,
        "longitude":123.8500045
    },
    {
        "season_name":"Survivor: Caramoan",
        "season":26,
        "location":"Caramoan, Camarines Sur, Philippines",
        "country":"Philippines",
        "filming_started":"2012-05-21",
        "filming_ended":"2012-06-28",
        "latitude":13.8076519,
        "longitude":123.8500045
    },
    {
        "season_name":"Survivor: Blood vs. Water",
        "season":27,
        "location":"Palaui Island, Santa Ana, Cagayan, Philippines",
        "country":"Philippines",
        "filming_started":"2013-05-20",
        "filming_ended":"2013-06-27",
        "latitude":18.5604256,
        "longitude":122.1405413
    },
    {
        "season_name":"Survivor: Cagayan",
        "season":28,
        "location":"Palaui Island, Santa Ana, Cagayan, Philippines",
        "country":"Philippines",
        "filming_started":"2013-07-11",
        "filming_ended":"2013-08-18",
        "latitude":18.5604256,
        "longitude":122.1405413
    },
    {
        "season_name":"Survivor: San Juan del Sur",
        "season":29,
        "location":"San Juan del Sur, Rivas, Nicaragua",
        "country":"Nicaragua",
        "filming_started":"2014-06-02",
        "filming_ended":"2014-07-10",
        "latitude":11.263406,
        "longitude":-85.8639766
    },
    {
        "season_name":"Survivor: Worlds Apart",
        "season":30,
        "location":"San Juan del Sur, Rivas, Nicaragua",
        "country":"Nicaragua",
        "filming_started":"2014-08-04",
        "filming_ended":"2014-09-11",
        "latitude":11.263406,
        "longitude":-85.8639766
    },
    {
        "season_name":"Survivor: Cambodia",
        "season":31,
        "location":"Koh Rong, Cambodia",
        "country":"Cambodia",
        "filming_started":"2015-05-31",
        "filming_ended":"2015-07-08",
        "latitude":10.7290832,
        "longitude":103.2317225
    },
    {
        "season_name":"Survivor: Kaoh Rong",
        "season":32,
        "location":"Koh Rong, Cambodia",
        "country":"Cambodia",
        "filming_started":"2015-03-30",
        "filming_ended":"2015-05-07",
        "latitude":10.7290832,
        "longitude":103.2317225
    },
    {
        "season_name":"Survivor: Millennials vs. Gen X",
        "season":33,
        "location":"Mamanuca Islands, Fiji",
        "country":"Fiji",
        "filming_started":"2016-04-04",
        "filming_ended":"2016-05-12",
        "latitude":-17.6127019972,
        "longitude":177.1222314194
    },
    {
        "season_name":"Survivor: Game Changers",
        "season":34,
        "location":"Mamanuca Islands, Fiji",
        "country":"Fiji",
        "filming_started":"2016-06-06",
        "filming_ended":"2016-07-14",
        "latitude":-17.6127019972,
        "longitude":177.1222314194
    },
    {
        "season_name":"Survivor: Heroes vs. Healers vs. Hustlers",
        "season":35,
        "location":"Mamanuca Islands, Fiji",
        "country":"Fiji",
        "filming_started":"2017-04-03",
        "filming_ended":"2017-05-11",
        "latitude":-17.6127019972,
        "longitude":177.1222314194
    },
    {
        "season_name":"Survivor: Ghost Island",
        "season":36,
        "location":"Mamanuca Islands, Fiji",
        "country":"Fiji",
        "filming_started":"2017-06-05",
        "filming_ended":"2017-07-13",
        "latitude":-17.6127019972,
        "longitude":177.1222314194
    },
    {
        "season_name":"Survivor: David vs. Goliath",
        "season":37,
        "location":"Mamanuca Islands, Fiji",
        "country":"Fiji",
        "filming_started":"2018-03-29",
        "filming_ended":"2018-05-06",
        "latitude":-17.6127019972,
        "longitude":177.1222314194
    },
    {
        "season_name":"Survivor: Edge of Extinction",
        "season":38,
        "location":"Mamanuca Islands, Fiji",
        "country":"Fiji",
        "filming_started":"2018-05-30",
        "filming_ended":"2018-07-07",
        "latitude":-17.6127019972,
        "longitude":177.1222314194
    },
    {
        "season_name":"Survivor: Island of the Idols",
        "season":39,
        "location":"Mamanuca Islands, Fiji",
        "country":"Fiji",
        "filming_started":"2019-03-21",
        "filming_ended":"2019-04-28",
        "latitude":-17.6127019972,
        "longitude":177.1222314194
    },
    {
        "season_name":"Survivor: Winners at War",
        "season":40,
        "location":"Mamanuca Islands, Fiji",
        "country":"Fiji",
        "filming_started":"2019-05-22",
        "filming_ended":"2019-06-29",
        "latitude":-17.6127019972,
        "longitude":177.1222314194
    },
    {
        "season_name":"Survivor: 41",
        "season":41,
        "location":"Mamanuca Islands, Fiji",
        "country":"Fiji",
        "filming_started":"2021-04-15",
        "filming_ended":"2021-05-10",
        "latitude":-17.6127019972,
        "longitude":177.1222314194
    },
    {
        "season_name":"Survivor: 42",
        "season":42,
        "location":"Mamanuca Islands, Fiji",
        "country":"Fiji",
        "filming_started":"2021-05-16",
        "filming_ended":"2021-06-10",
        "latitude":-17.6127019972,
        "longitude":177.1222314194
    },
    {
        "season_name":"Survivor: 43",
        "season":43,
        "location":"Mamanuca Islands, Fiji",
        "country":"Fiji",
        "filming_started":"2022-05-02",
        "filming_ended":"2022-05-27",
        "latitude":-17.6127019972,
        "longitude":177.1222314194
    },
    {
        "season_name":"Survivor: 44",
        "season":44,
        "location":"Mamanuca Islands, Fiji",
        "country":"Fiji",
        "filming_started":"2022-06-05",
        "filming_ended":"2022-06-30",
        "latitude":-17.6127019972,
        "longitude":177.1222314194
    },
    {
        "season_name":"Survivor: 45",
        "season":45,
        "location":"Mamanuca Islands, Fiji",
        "country":"Fiji",
        "filming_started":"2023-04-16",
        "filming_ended":"2023-05-11",
        "latitude":-17.6127019972,
        "longitude":177.1222314194
    },
    {
        "season_name":"Survivor: 46",
        "season":46,
        "location":"Mamanuca Islands, Fiji",
        "country":"Fiji",
        "filming_started":"2023-06-01",
        "filming_ended":"2023-06-26",
        "latitude":-17.6127019972,
        "longitude":177.1222314194
    }
]